,City,Cloudiness,Country,Date,Humidity,Lat,Lng,Max Temperature,Wind Speed
0,Saint-Philippe,90,CA,1578004097,74,45.36,-73.48,39.2,9.17
1,Mataura,53,NZ,1578004097,64,-46.19,168.86,55.0,17.0
2,Suntar,100,RU,1578004097,97,62.16,117.65,-0.53,3.42
3,Saskylakh,5,RU,1578004098,91,71.97,114.09,-17.01,8.25
4,Dingle,100,PH,1578004098,94,11.0,122.67,73.13,9.53
5,Qaanaaq,9,GL,1578004098,65,77.48,-69.36,-39.23,5.97
6,Hobart,75,AU,1578004099,67,-42.88,147.33,62.6,6.93
7,Ushuaia,40,AR,1578004099,49,-54.81,-68.31,57.2,26.4
8,Yakima,90,US,1578003812,42,46.6,-120.51,46.99,3.36
9,San Patricio,77,PY,1578004099,49,-26.98,-56.83,87.08,9.26
10,Rikitea,100,PF,1578003860,75,-23.12,-134.97,79.25,7.31
11,Upernavik,100,GL,1578004100,59,72.79,-56.15,-0.89,16.51
12,Hammerfest,75,NO,1578004100,56,70.66,23.68,42.8,36.91
13,New Norfolk,75,AU,1578004100,67,-42.78,147.06,66.0,6.93
14,Nichinan,20,JP,1578004101,70,31.65,131.31,46.4,10.29
15,Dikson,100,RU,1578004101,91,73.51,80.55,-3.01,24.05
16,Werota,73,ET,1578004101,62,11.92,37.7,72.72,9.82
17,Beyneu,100,KZ,1578004101,97,45.32,55.19,33.42,6.98
18,Krasnorechenskiy,0,RU,1578004101,88,44.63,135.35,-2.24,6.11
19,Yumen,26,CN,1578004102,52,40.29,97.04,20.01,7.34
20,Cape Town,20,ZA,1578003818,82,-33.93,18.42,68.0,18.34
21,Port Elizabeth,1,US,1578004102,65,39.31,-74.98,51.01,3.36
22,Tiksi,0,RU,1578004103,65,71.64,128.87,-19.26,4.16
23,Thompson,90,CA,1578004103,84,55.74,-97.86,6.8,3.36
24,Bonavista,92,CA,1578003880,83,48.65,-53.11,29.8,16.64
25,Tuktoyaktuk,75,CA,1578004104,75,69.44,-133.03,-13.0,12.75
26,Faanui,100,PF,1578004104,77,-16.48,-151.75,81.12,13.31
27,Lagoa,75,PT,1578004105,82,37.14,-8.45,59.0,4.7
28,Anantapur,0,IN,1578004012,82,14.68,77.61,72.9,5.77
29,Hithadhoo,0,MV,1578004105,78,-0.6,73.08,82.96,13.38
30,Busselton,0,AU,1578004106,51,-33.64,115.35,57.99,15.43
31,Punta Arenas,40,CL,1578004106,25,-53.16,-70.91,62.6,19.46
32,Meulaboh,93,ID,1578004106,75,4.14,96.13,80.76,6.55
33,Pamanukan,51,ID,1578004106,83,-6.28,107.82,76.01,2.89
34,Wahiawa,90,US,1578004107,88,21.5,-158.02,80.6,10.29
35,Butaritari,100,KI,1578004107,71,3.07,172.79,83.53,5.77
36,Miragoane,0,HT,1578004107,68,18.44,-73.09,80.17,4.65
37,Amambai,12,BR,1578004108,59,-23.11,-55.23,84.52,6.02
38,Nukus,75,UZ,1578004108,86,42.46,59.61,37.4,4.7
39,Mnogovershinnyy,100,RU,1578004108,94,53.94,139.92,-6.72,9.71
40,Sakaiminato,75,JP,1578004108,66,35.55,133.23,48.2,11.41
41,Pangnirtung,90,CA,1578004109,77,66.15,-65.72,5.0,2.24
42,Portland,40,US,1578003830,55,43.66,-70.25,39.2,4.7
43,Carnarvon,0,ZA,1578004109,67,-30.97,22.13,67.3,23.91
44,Yellowknife,90,CA,1578004109,84,62.45,-114.38,6.8,9.17
45,Mehamn,75,NO,1578004110,86,71.03,27.85,30.2,20.8
46,Arraial do Cabo,75,BR,1578004059,88,-22.97,-42.02,77.0,10.29
47,Atuona,0,PF,1578004110,74,-9.8,-139.03,81.03,12.73
48,Seidu,0,NG,1578004110,32,8.32,4.47,69.8,11.41
49,Cidreira,19,BR,1578004111,77,-30.17,-50.22,73.62,23.42
50,Avarua,92,CK,1578004111,74,-21.21,-159.78,80.6,8.05
51,Hermanus,26,ZA,1578004111,93,-34.42,19.24,64.0,8.52
52,Tooele,75,US,1578004082,60,40.53,-112.3,39.99,8.05
53,Geraldton,90,CA,1578004112,92,49.72,-86.95,30.2,3.36
54,Sorland,75,NO,1578004112,93,67.67,12.69,39.2,3.36
55,Airai,100,TL,1578004112,92,-8.93,125.41,68.2,1.43
56,Barrow,0,AR,1578004113,42,-38.31,-60.23,80.65,8.63
57,Bluff,24,AU,1578004113,78,-23.58,149.07,75.79,12.75
58,Sao Filipe,100,CV,1578004129,72,14.9,-24.5,70.86,19.01
59,Mahebourg,75,MU,1578004129,88,-20.41,57.7,78.8,5.28
60,Gravdal,100,NO,1578004130,93,59.79,5.78,46.99,29.97
61,Fukue,20,JP,1578004130,61,35.03,136.69,48.2,13.87
62,Kruisfontein,67,ZA,1578004130,84,-34.0,24.73,67.28,7.45
63,Ocotal,0,NI,1578004130,49,13.63,-86.48,78.98,7.94
64,Tura,96,RU,1578004131,94,64.27,100.22,-4.59,5.44
65,Hasaki,20,JP,1578004131,92,35.73,140.83,28.4,2.24
66,Flinders,96,AU,1578004131,78,-34.58,150.85,73.99,10.29
67,Tumaco,56,CO,1578004131,85,1.8,-78.82,78.71,19.62
68,Nikolskoye,90,RU,1578004132,80,59.7,30.79,41.0,8.95
69,Kapaa,90,US,1578004132,88,22.08,-159.32,80.6,16.11
70,Bredasdorp,0,ZA,1578004132,82,-34.53,20.04,62.6,3.36
71,Ilulissat,75,GL,1578004132,66,69.22,-51.1,12.2,14.99
72,Cherskiy,28,RU,1578004133,72,68.75,161.3,-1.7,12.66
73,Bambanglipuro,37,ID,1578004133,87,-7.95,110.28,74.41,4.52
74,Erzin,75,TR,1578004133,93,36.95,36.2,51.01,10.29
75,Ribeira Grande,40,PT,1578004133,72,38.52,-28.7,59.0,12.75
76,Fort Nelson,20,CA,1578004133,78,58.81,-122.69,8.6,2.24
77,Chake Chake,62,TZ,1578004134,80,-5.25,39.77,82.67,17.94
78,Hilo,75,US,1578004134,54,19.71,-155.08,82.4,5.82
79,Abu Samrah,96,SY,1578004134,88,35.3,37.18,48.33,10.04
80,Ladario,98,PT,1578004135,93,40.7,-7.74,52.0,3.31
81,La Palma,100,CO,1578004135,70,5.36,-74.39,80.64,3.91
82,Guiratinga,100,BR,1578004135,72,-16.35,-53.76,82.56,5.53
83,Manono,100,CD,1578004135,95,-7.3,27.4,70.39,1.54
84,Torbay,75,CA,1578004136,86,47.66,-52.73,32.0,12.75
85,Byron Bay,75,AU,1578004136,65,-28.65,153.62,80.6,11.41
86,Ruiru,75,KE,1578004136,88,-1.16,36.96,64.4,6.93
87,Hays,1,US,1578004136,70,38.88,-99.33,44.6,16.11
88,Hambantota,20,LK,1578004137,100,6.12,81.12,75.2,3.36
89,Lebu,51,ET,1578004137,84,8.96,38.73,56.1,0.63
90,Port Blair,26,IN,1578004137,77,11.67,92.75,81.03,12.88
91,Tasiilaq,0,GL,1578004138,33,65.61,-37.64,14.0,17.22
92,Vaini,0,IN,1578004138,89,15.34,74.49,63.93,1.97
93,Camacupa,100,AO,1578004138,92,-12.02,17.48,65.19,1.1
94,Sarangani,100,PH,1578004138,86,5.4,125.46,75.99,8.41
95,Surt,0,LY,1578004139,70,31.21,16.59,54.19,11.01
96,Pevek,100,RU,1578004139,64,69.7,170.27,1.85,12.88
97,Port Alfred,94,ZA,1578004139,92,-33.59,26.89,68.0,14.25
98,Boyolangu,84,ID,1578004139,88,-8.09,111.9,73.98,1.72
99,Troitskoye,67,RU,1578004140,89,52.98,84.68,18.3,5.32
100,Albany,75,US,1578004140,52,42.65,-73.75,43.0,11.41
101,Lorengau,22,PG,1578004140,71,-2.02,147.27,84.36,5.46
102,Puerto Ayora,75,EC,1578004141,61,-0.74,-90.35,82.4,16.11
103,Matara,100,BI,1578004141,91,-3.48,29.48,59.34,3.51
104,Gizo,90,IL,1578004141,71,31.8,34.94,55.4,8.05
105,Alofi,40,NU,1578004141,61,-19.06,-169.92,82.4,9.17
106,Baley,1,RU,1578004142,95,51.58,116.65,-12.21,3.85
107,Mao,75,DO,1578004142,69,19.55,-71.08,82.4,11.41
108,Teruel,48,ES,1578004142,64,40.34,-1.11,46.4,5.82
109,Touros,75,BR,1578004142,78,-5.2,-35.46,80.6,11.41
110,Fairbanks,75,US,1578003998,69,64.84,-147.72,-4.0,3.8
111,Kingaroy,40,AU,1578004143,60,-26.54,151.84,75.2,6.93
112,Shingu,5,JP,1578004144,75,33.72,135.99,49.05,14.07
113,Toktogul,100,KG,1578004144,37,41.87,72.95,17.82,5.7
114,Namatanai,0,PG,1578004144,77,-3.66,152.44,82.15,3.85
115,Jamestown,64,AU,1578004144,16,-33.21,138.6,75.25,17.78
116,Laguna,40,BZ,1578004144,70,16.17,-88.94,86.0,4.7
117,Asyut,0,EG,1578004145,57,27.18,31.19,48.2,9.17
118,Brigantine,1,US,1578004145,65,39.41,-74.36,48.0,4.7
119,Gondar,90,PT,1578004145,87,41.82,-8.78,55.99,8.05
120,Cochabamba,75,BO,1578004055,59,-17.39,-66.16,66.2,6.51
121,Paihia,19,NZ,1578004146,63,-35.28,174.09,75.99,5.01
122,Coquimbo,59,CL,1578004146,68,-29.95,-71.34,64.4,13.87
123,Talnakh,40,RU,1578004146,77,69.49,88.39,-0.4,20.13
124,Yabelo,4,ET,1578004147,66,4.89,38.09,67.82,18.57
125,Gboko,0,NG,1578004147,15,7.32,9.0,72.88,11.34
126,Kantang,100,TH,1578004147,89,7.42,99.52,73.56,2.46
127,Chokurdakh,0,RU,1578004148,93,70.62,147.9,-24.9,3.49
128,Shelton,1,US,1578004148,70,41.32,-73.09,46.4,8.05
129,Leshukonskoye,100,RU,1578004148,95,64.9,45.76,29.3,10.56
130,Waipawa,57,NZ,1578004148,24,-39.94,176.59,73.6,8.52
131,Dakar,100,SN,1578004149,69,14.69,-17.45,73.4,11.41
132,Unai,100,BR,1578004149,89,-16.36,-46.91,74.17,5.14
133,Ponta do Sol,91,BR,1578004149,87,-20.63,-46.0,72.01,8.63
134,Chuy,42,UY,1578004149,69,-33.69,-53.46,72.46,13.15
135,Ancud,0,CL,1578004150,57,-41.87,-73.83,75.2,8.05
136,Mwinilunga,95,ZM,1578004150,96,-11.73,24.43,63.54,2.73
137,Port Lincoln,72,AU,1578004150,25,-34.72,135.86,77.32,15.55
138,Tarata,100,PE,1578004151,56,-17.47,-70.03,73.4,9.17
139,Atar,100,MR,1578004151,14,20.52,-13.05,59.52,12.21
140,Dauphin,90,CA,1578004151,85,51.15,-100.04,24.8,16.11
141,East London,93,ZA,1578004151,85,-33.02,27.91,73.54,14.18
142,Balkanabat,99,TM,1578004152,87,39.51,54.36,42.91,8.05
143,Jumla,100,NP,1578004152,91,29.28,82.18,26.51,1.05
144,Pop,90,UZ,1578004152,92,40.87,71.1,30.2,4.7
145,Richards Bay,79,ZA,1578004152,86,-28.77,32.06,79.12,11.48
146,Angoram,85,PG,1578004153,97,-4.06,144.07,75.96,1.3
147,Pangai,20,TO,1578004153,57,-19.8,-174.35,80.6,8.05
148,Ziro,96,IN,1578004153,78,27.54,93.82,48.47,3.6
149,Pouembout,83,NC,1578004154,71,-21.12,164.9,72.99,3.76
150,Burnie,16,AU,1578004154,74,-41.05,145.91,55.89,5.73
151,Azare,0,NG,1578003885,22,11.67,10.19,55.85,10.09
152,San Quintin,0,PH,1578004154,82,17.54,120.52,65.98,6.26
153,Terrace,90,CA,1578004155,86,54.52,-128.61,30.99,13.87
154,Bambous Virieux,75,MU,1578004155,88,-20.34,57.76,78.8,9.93
155,Esperance,90,AU,1578004155,93,-33.86,121.89,59.0,16.11
156,Malmyzh,66,RU,1578004155,95,56.52,50.68,11.7,10.16
157,Sohag,0,EG,1578004156,61,26.55,31.7,48.2,6.93
158,North Bend,90,US,1578004157,76,43.41,-124.22,54.0,5.82
159,Oyama,20,JP,1578004157,86,36.31,139.8,39.0,1.12
160,Gillette,90,US,1578004157,59,44.29,-105.5,37.99,11.41
161,Bethel,1,US,1578004157,75,60.79,-161.76,-11.2,9.17
162,Sur,63,OM,1578004158,61,22.57,59.53,69.15,8.05
163,Fort Saint James,100,CA,1578004158,86,54.43,-124.25,20.77,1.45
164,Ahipara,100,NZ,1578004158,87,-35.17,173.16,66.42,12.59
165,Norman Wells,90,CA,1578004159,76,65.28,-126.83,-4.0,14.99
166,Vao,4,EE,1578004159,88,59.1,26.19,36.91,12.62
167,Bilma,0,NE,1578004159,29,18.69,12.92,50.63,13.0
168,Brae,100,GB,1578004159,60,60.4,-1.35,44.6,27.51
169,Necochea,0,AR,1578004159,1,-38.55,-58.74,78.01,14.0
170,Zhigansk,0,RU,1578004160,93,66.77,123.37,-34.01,9.33
171,Gladstone,40,AU,1578004160,58,-23.84,151.26,82.99,14.99
172,Longyearbyen,0,NO,1578004160,64,78.22,15.63,1.4,13.87
173,Nantucket,1,US,1578004012,75,41.28,-70.1,44.6,18.34
174,Axim,0,GH,1578004161,74,4.87,-2.24,79.27,3.85
175,San Juan,0,AR,1578004064,25,-31.54,-68.53,94.19,6.35
176,Leningradskiy,0,RU,1578004161,81,69.38,178.42,-11.34,13.96
177,Chicama,75,PE,1578004135,78,-7.84,-79.15,71.6,11.41
178,Bethanien,0,NA,1578004162,28,-26.5,17.16,73.56,4.34
179,Lander,1,US,1578004162,43,42.83,-108.73,36.0,3.36
180,Kaeo,1,NZ,1578004162,63,-35.1,173.78,75.99,5.01
181,Voh,97,NC,1578004163,70,-20.95,164.69,76.15,6.35
182,Mantua,0,IT,1578004163,100,45.16,10.79,39.0,3.36
183,Halifax,90,CA,1578004057,69,44.65,-63.58,35.01,13.87
184,Tezu,97,IN,1578004163,86,27.93,96.16,57.11,1.68
185,Praia,75,BR,1578004163,78,-20.25,-43.81,71.6,5.82
186,Talakan,62,RU,1578004164,98,50.29,130.28,-16.96,5.32
187,Iquique,11,CL,1578004078,64,-20.22,-70.14,73.4,17.22
188,Hendek,75,TR,1578004164,100,40.8,30.75,35.6,4.7
189,Dogondoutchi,0,NE,1578004165,17,13.64,4.03,61.79,15.64
190,Calahorra,90,ES,1578004165,71,42.3,-1.96,32.0,2.24
191,Ambilobe,84,MG,1578004165,89,-13.19,49.05,76.73,1.57
192,Presque Isle,20,US,1578003904,79,46.68,-68.02,28.4,5.61
193,Charters Towers,100,AU,1578004166,81,-20.07,146.27,75.92,8.68
194,Wanning,0,AT,1578004166,92,48.64,13.53,30.99,3.36
195,Pokhara,34,NP,1578004166,67,28.21,83.99,48.34,3.22
196,Cabo San Lucas,5,MX,1578004127,49,22.89,-109.91,75.99,14.99
197,Nouakchott,100,MR,1578004166,14,18.08,-15.98,62.6,9.17
198,Kavieng,23,PG,1578004167,74,-2.57,150.8,82.94,4.76
199,Kahului,40,US,1578003929,65,20.89,-156.47,80.6,11.41
200,Georgetown,20,GY,1578003925,74,6.8,-58.16,80.6,4.7
201,Ambulu,100,ID,1578004168,78,-8.35,113.61,80.71,3.58
202,Moron,40,HT,1578004168,78,18.56,-74.26,79.57,4.97
203,Copacabana,1,BO,1578004168,78,-16.17,-69.08,49.3,16.6
204,Mar del Plata,0,AR,1578004168,19,-46.43,-67.52,90.41,20.71
205,Los Llanos de Aridane,100,ES,1578004169,55,28.66,-17.92,62.6,9.17
206,Bafoulabe,97,ML,1578004169,10,13.81,-10.83,75.0,10.87
207,San Ramon de la Nueva Oran,19,AR,1578004169,61,-23.13,-64.33,87.01,4.94
208,Amazar,58,RU,1578004169,91,53.86,120.88,-12.87,2.28
209,Umm Lajj,0,SA,1578004170,59,25.02,37.27,59.5,2.35
210,Cisaat,82,ID,1578004170,81,-6.22,106.01,79.83,7.7
211,Victoria,75,BN,1578004170,88,5.28,115.24,80.01,2.24
212,Rantoul,40,US,1578004170,81,40.31,-88.16,50.0,6.93
213,Port Macquarie,75,AU,1578004170,73,-31.43,152.91,80.01,5.82
214,Krasnokamensk,0,RU,1578004171,87,50.1,118.04,-8.25,4.38
215,Novoukrainskiy,75,RU,1578004171,87,44.89,38.05,32.0,3.98
216,Puerto Escondido,5,MX,1578004171,70,15.86,-97.07,84.2,11.41
217,Iqaluit,90,CA,1578004171,85,63.75,-68.52,10.4,4.7
218,Clyde River,90,CA,1578004172,76,70.47,-68.59,-7.6,12.75
219,Tshela,100,CD,1578004172,98,-4.99,12.94,74.08,2.86
220,Katsuura,75,JP,1578004172,81,33.93,134.5,44.6,5.82
221,Velyka Oleksandrivka,100,UA,1578004172,86,47.32,33.3,29.21,7.18
222,Saint-Louis,100,SN,1578004173,28,16.03,-16.5,71.6,4.7
223,Paraiso,40,BR,1578004173,100,-0.03,-51.17,80.6,5.82
224,Nizhnyaya Tavda,96,RU,1578004173,95,57.67,66.17,9.28,6.58
225,Chapais,90,CA,1578004173,85,49.78,-74.86,21.2,6.93
226,Grand Forks,90,US,1578004174,79,47.91,-97.06,24.8,6.93
227,Saba,88,HN,1578004174,44,15.52,-86.23,80.08,4.76
228,Ishigaki,75,JP,1578004174,77,24.34,124.16,64.4,4.7
229,Ibra,51,OM,1578004174,56,22.69,58.55,66.15,4.05
230,Khatanga,100,RU,1578004174,98,71.98,102.47,-6.54,1.97
231,San Cristobal,28,HN,1578004175,34,14.68,-86.92,81.72,6.29
232,Otane,57,NZ,1578004175,24,-39.89,176.62,73.6,8.52
233,Saint-Francois,40,FR,1578004175,81,46.42,3.91,32.0,2.24
234,Fortuna,1,US,1578004175,76,40.6,-124.16,57.99,3.96
235,Soyo,100,AO,1578004176,84,-6.13,12.37,80.04,4.25
236,Veraval,90,FR,1578004176,100,49.65,0.71,50.0,16.11
237,Bilibino,49,RU,1578004176,74,68.06,166.44,-12.96,3.13
238,Tuatapere,1,NZ,1578004177,64,-46.13,167.69,55.0,17.0
239,Petropavlovsk-Kamchatskiy,100,RU,1578004177,78,53.05,158.65,8.6,2.24
240,Samarai,100,PG,1578004177,85,-10.62,150.67,77.07,2.1
241,Tamiahua,68,MX,1578004178,90,21.28,-97.45,72.57,10.11
242,Sitka,100,US,1578004178,60,37.17,-99.65,48.0,11.01
243,Lodwar,31,KE,1578004178,39,3.12,35.6,86.32,13.15
244,Beinamar,100,TD,1578004178,20,8.67,15.38,63.81,4.72
245,Narasannapeta,97,IN,1578004179,81,18.42,84.04,68.94,3.58
246,Vitim,100,RU,1578004179,94,59.44,112.57,11.05,7.63
247,Mundo Nuevo,20,CL,1578004179,77,-32.72,-71.41,64.4,11.41
248,Talcahuano,6,CL,1578004179,72,-36.72,-73.12,64.4,9.17
249,Nakamura,20,JP,1578004179,61,35.17,136.87,48.2,13.87
250,Castro,57,CL,1578004180,57,-42.48,-73.76,75.2,8.05
251,Margate,75,AU,1578004180,67,-43.03,147.26,66.0,6.93
252,Cockburn Town,40,TC,1578004180,65,21.46,-71.14,78.8,9.17
253,Baykit,53,RU,1578004181,98,61.68,96.39,2.93,2.35
254,Sao Joao da Barra,75,BR,1578004181,88,-21.64,-41.05,75.2,9.17
255,Wadena,93,CA,1578004181,96,51.95,-103.8,13.89,6.6
256,Boa Vista,75,BR,1578003928,40,2.82,-60.67,87.8,8.05
257,Kerema,93,PG,1578004181,91,-7.96,145.78,76.78,2.28
258,The Valley,40,AI,1578004018,69,18.22,-63.06,80.6,6.93
259,Kostomuksha,100,RU,1578004182,90,64.59,30.6,34.38,14.56
260,Kovernino,97,RU,1578004182,97,57.13,43.81,33.15,7.78
261,Tessalit,6,ML,1578004182,26,20.2,1.01,53.28,13.33
262,Riyadh,1,SA,1578004183,55,24.63,46.72,62.6,5.82
263,Ereymentau,86,KZ,1578004183,91,51.62,73.1,26.13,19.69
264,Namtsy,95,RU,1578004183,67,62.72,129.66,-27.4,1.28
265,Labuhan,100,ID,1578004183,94,-2.54,115.51,72.57,1.3
266,Kaitangata,78,NZ,1578004184,55,-46.28,169.85,57.0,14.0
267,Honiara,20,SB,1578004184,70,-9.43,159.96,87.8,2.24
268,Maple Creek,100,CA,1578004184,87,49.91,-109.46,26.19,20.38
269,Tasgaon,0,IN,1578004184,76,17.04,74.6,65.43,6.96
270,Nerchinskiy Zavod,0,RU,1578004185,92,51.31,119.61,-16.89,4.27
271,Santa Vitoria do Palmar,42,BR,1578004185,69,-33.52,-53.37,72.46,13.15
272,Visnes,100,NO,1578004186,93,59.36,5.22,46.4,29.97
273,Kloulklubed,90,PW,1578004186,74,7.04,134.26,80.6,11.41
274,Avera,90,US,1578004186,93,33.19,-82.53,53.6,6.93
275,Zyryanovsk,0,KZ,1578004187,74,49.74,84.27,8.17,1.74
276,Beringovskiy,0,RU,1578004187,82,63.05,179.32,-11.65,15.03
277,Valdosta,1,US,1578004006,53,30.83,-83.28,75.2,10.29
278,Chapada dos Guimaraes,40,BR,1578004187,62,-15.46,-55.75,86.0,3.36
279,Kuching,75,MY,1578004188,94,1.56,110.34,77.0,3.36
280,Henties Bay,5,NA,1578004188,90,-22.12,14.28,62.01,1.99
281,Grand Gaube,75,MU,1578004188,88,-20.01,57.66,78.8,10.07
282,Ust-Koksa,0,RU,1578004188,75,50.27,85.62,10.8,6.53
283,Ovalle,0,CL,1578004188,29,-30.6,-71.2,77.47,9.84
284,Zaysan,0,KZ,1578004189,84,47.47,84.87,3.51,1.14
285,Grindavik,75,IS,1578004144,100,63.84,-22.43,26.6,23.04
286,Saint George,20,GR,1578004189,74,39.45,22.34,37.99,3.36
287,Baoding,0,CN,1578004189,37,38.86,115.49,24.48,1.97
288,Tingi,100,TZ,1578004190,83,-11.3,35.03,71.08,5.12
289,Jiazi,56,CN,1578004190,100,19.61,110.49,64.4,2.24
290,Kudahuvadhoo,94,MV,1578004190,76,2.67,72.89,82.36,9.6
291,Hazorasp,75,UZ,1578004191,92,41.32,61.08,28.4,4.7
292,Karratha,100,AU,1578003897,63,-20.74,116.85,84.47,4.03
293,Haines Junction,91,CA,1578004191,99,60.75,-137.51,-1.62,6.98
294,Salalah,13,OM,1578004192,64,17.01,54.1,73.4,4.7
295,Half Moon Bay,1,US,1578004192,76,37.46,-122.43,64.0,17.22
296,Birobidzhan,0,RU,1578004192,86,48.79,132.93,-7.53,6.02
297,Kayerkan,40,RU,1578004192,77,69.35,87.76,-0.4,20.13
298,Amapa,40,HN,1578004193,58,15.09,-87.97,87.8,13.87
299,Kalmunai,11,LK,1578004193,77,7.42,81.82,82.09,11.48
300,Shimoda,0,JP,1578004193,75,34.7,138.93,41.0,30.18
301,Riviere-au-Renard,5,CA,1578004193,79,49.0,-64.4,23.0,11.41
302,Skjervoy,20,NO,1578004194,56,70.03,20.97,42.8,19.46
303,Tupik,43,RU,1578004194,92,54.43,119.94,-16.44,3.2
304,Morros,20,BR,1578004194,83,-2.87,-44.04,80.6,6.93
305,Barentu,0,ER,1578004195,46,15.11,37.59,72.52,7.0
306,Colac,58,AU,1578004195,81,-38.34,143.59,66.99,1.99
307,Poum,40,MK,1578004195,51,41.28,20.71,32.0,5.82
308,Masterton,9,NZ,1578004195,82,-40.95,175.66,66.0,4.18
309,Nanortalik,98,GL,1578004196,33,60.14,-45.24,29.43,5.73
310,Ponta Delgada,20,PT,1578004196,66,37.73,-25.67,55.4,8.05
311,Vilyuysk,100,RU,1578004196,93,63.75,121.63,-15.77,4.5
312,Eureka,75,US,1578004197,76,40.8,-124.16,55.99,3.36
313,Pisco,20,PE,1578004197,30,-13.71,-76.2,73.0,18.34
314,Rawson,55,AR,1578004198,45,-43.3,-65.11,76.78,28.12
315,Caibarien,40,CU,1578004198,69,22.52,-79.47,82.4,12.75
316,Azanja,0,RS,1578004198,87,44.43,20.88,32.0,4.7
317,Debre Sina,33,ET,1578004198,58,9.85,39.76,70.14,2.68
318,Ostrovnoy,100,RU,1578004199,93,68.05,39.51,25.32,16.84
319,Horta,40,BR,1578004199,69,-10.93,-37.66,82.4,11.41
320,Ceres,100,BR,1578004199,87,-15.31,-49.6,77.59,5.1
321,Tongliao,0,CN,1578004200,77,43.61,122.27,9.39,7.9
322,Acushnet,1,US,1578004200,60,41.68,-70.91,44.6,11.41
323,Keuruu,75,FI,1578004200,86,62.26,24.71,39.99,12.75
324,Ust-Kuyga,45,RU,1578004201,91,70.0,135.55,-31.05,8.21
325,Camabatela,100,AO,1578004201,97,-8.19,15.37,65.25,3.47
326,Pitsunda,40,GE,1578004201,86,43.16,40.34,33.8,4.47
327,Constitucion,20,MX,1578004202,28,23.99,-104.67,57.2,21.92
328,Vila Franca do Campo,20,PT,1578004202,66,37.72,-25.43,55.4,8.05
329,Aksu,58,KZ,1578004203,79,52.04,76.93,23.0,8.95
330,Marsh Harbour,9,BS,1578004097,66,26.54,-77.06,74.86,10.09
331,Bandarbeyla,87,SO,1578004203,77,9.49,50.81,77.83,16.44
332,Casablanca,20,MA,1578004203,93,33.6,-7.62,57.0,2.24
333,Gbarnga,59,LR,1578004203,42,7.0,-9.47,67.21,2.01
334,Noumea,87,NC,1578003944,51,-22.28,166.46,81.0,3.36
335,Champasak,84,LA,1578004204,75,14.89,105.88,67.59,1.16
336,Oranjestad,40,AW,1578004204,69,12.52,-70.03,82.4,16.11
337,Micheweni,83,TZ,1578004204,82,-4.97,39.83,82.36,16.67
338,Black River,20,JM,1578004205,78,18.03,-77.85,82.99,13.87
339,Young,0,UY,1578004205,60,-32.7,-57.63,80.01,1.01
340,Casas Grandes,0,MX,1578004205,53,30.15,-110.24,50.16,16.04
341,Lethem,79,GY,1578004205,45,3.38,-59.8,83.68,13.6
342,Plon,30,AT,1578004206,73,46.92,12.49,30.0,4.05
343,Turayf,11,SA,1578004206,70,31.68,38.65,42.8,3.38
344,Pochutla,20,MX,1578004206,62,15.74,-96.47,87.01,11.41
345,Colares,75,PT,1578004206,93,38.8,-9.45,55.0,4.7
346,Clara,92,IE,1578004204,95,53.34,-7.61,48.99,8.01
347,Gisborne,11,NZ,1578004207,30,-38.66,178.02,82.99,10.0
348,Rochelle,1,US,1578004000,93,41.92,-89.07,46.99,6.93
349,Beloha,46,MG,1578004208,86,-25.17,45.06,73.22,11.07
350,Pilar,20,AR,1578004208,64,-34.46,-58.91,80.01,14.99
351,Ajdabiya,17,LY,1578004208,73,30.75,20.22,51.1,8.72
352,Guozhen,100,CN,1578004209,84,29.3,113.14,43.52,7.18
353,Chimbote,58,PE,1578004209,75,-9.08,-78.59,71.82,7.52
354,Havre-Saint-Pierre,20,CA,1578004209,73,50.23,-63.6,24.8,18.34
355,Taltal,19,CL,1578004209,88,-25.41,-70.49,59.92,3.49
356,Abha,0,SA,1578004210,46,18.22,42.5,57.2,4.7
357,Rio Grande,40,BR,1578004109,61,-32.03,-52.1,78.8,18.34
358,Bandar-e Lengeh,40,IR,1578004210,77,26.56,54.88,66.2,6.02
359,Gazanjyk,86,TM,1578004211,72,39.24,55.52,40.66,6.26
360,Moranbah,28,AU,1578004211,46,-22.0,148.04,87.22,14.34
361,Agadir,96,MA,1578004211,100,30.42,-9.58,53.6,6.93
362,Zhanaozen,100,KZ,1578004211,88,43.35,52.85,33.17,9.73
363,Teguise,100,ES,1578004212,47,29.06,-13.56,59.0,10.29
364,Santa Fe,42,AR,1578004212,44,-31.62,-60.7,84.99,3.0
365,Joshimath,100,IN,1578004212,60,30.57,79.57,24.53,8.12
366,Morgan City,90,US,1578004087,100,29.7,-91.21,78.8,23.04
367,Hamilton,75,CA,1578004056,82,43.26,-79.87,46.0,13.87
368,Hyeres,90,FR,1578004213,93,43.12,6.14,53.01,2.24
369,Agadez,1,NE,1578004213,24,16.97,7.99,57.2,14.99
370,Kulu,100,CD,1578004213,53,3.47,23.69,70.84,0.89
371,Sulangan,99,PH,1578004214,80,11.14,123.72,81.05,22.17
372,Nampula,75,MZ,1578004214,88,-15.12,39.26,73.4,4.7
373,Lavrentiya,23,RU,1578004214,91,65.58,-170.99,-13.31,13.0
374,Coahuayana,58,MX,1578004214,45,18.62,-100.35,80.51,2.28
375,Nueva Concepcion,40,GT,1578004215,62,14.2,-91.3,87.8,13.87
376,Vila Velha,40,BR,1578004215,83,-3.71,-38.6,86.0,5.82
377,Murchison,17,AU,1578004215,41,-36.62,145.22,71.01,7.43
378,Ossora,100,RU,1578004215,87,59.24,163.07,27.79,22.1
379,Rawlins,1,US,1578004216,73,41.79,-107.24,26.6,19.46
380,Voznesenye,100,RU,1578004216,86,61.02,35.48,38.25,20.09
381,Kampong Cham,100,KH,1578004216,75,11.99,105.46,72.52,8.81
382,Srednekolymsk,27,RU,1578004217,83,67.46,153.71,-13.72,2.57
383,Killarney,4,AU,1578004217,69,-28.34,152.3,71.01,1.99
384,Caravelas,100,BR,1578004217,83,-17.73,-39.27,76.93,11.77
385,Kodiak,1,US,1578004217,66,39.95,-94.76,50.0,6.93
386,Plettenberg Bay,38,ZA,1578004218,91,-34.05,23.37,66.85,1.57
387,Kalianget,18,ID,1578004218,100,-7.35,109.91,79.0,1.61
388,Saldanha,100,PT,1578004218,88,41.42,-6.55,38.41,3.76
389,Viedma,50,AR,1578004218,53,-40.81,-62.99,73.06,18.25
390,Quang Ngai,100,VN,1578004155,80,15.12,108.8,75.0,13.47
391,Gweta,100,BW,1578004219,51,-20.21,25.26,80.91,9.84
392,Den Helder,90,NL,1578004004,93,52.96,4.76,46.0,23.04
393,Komsomolets,99,RU,1578004220,97,52.77,41.29,31.82,7.31
394,Palimbang,40,PH,1578004220,83,14.9,120.78,77.0,4.7
395,Jalu,0,LY,1578004220,83,29.03,21.55,47.55,9.19
396,Hofn,20,IS,1578004220,36,64.25,-15.21,27.82,5.21
397,Te Anau,47,NZ,1578004221,59,-45.41,167.72,49.91,9.37
398,Luderitz,19,NA,1578004221,72,-26.65,15.16,68.0,18.34
399,Mikun,100,RU,1578004221,92,62.35,50.08,20.66,11.12
400,Bosaso,34,SO,1578004170,78,11.28,49.18,78.6,15.97
401,San-Pedro,24,CI,1578003988,80,4.75,-6.64,81.95,10.02
402,Dawson Creek,75,CA,1578004222,46,55.76,-120.23,28.4,16.11
403,Rome,17,IT,1578004131,93,41.89,12.48,48.0,2.24
404,Katobu,100,ID,1578004222,88,-4.94,122.53,78.62,0.36
405,Taoudenni,95,ML,1578004222,24,22.68,-3.98,54.55,11.63
406,Campbell River,90,CA,1578004220,96,50.02,-125.24,37.4,8.05
407,Vardo,1,US,1578004056,42,39.62,-77.74,48.99,8.05
408,Kollegal,29,IN,1578004224,93,12.16,77.11,65.55,2.64
409,Christchurch,83,NZ,1578004224,82,-43.53,172.64,64.0,10.29
410,Khagaria,100,IN,1578004224,77,25.51,86.48,60.75,5.99
411,Derzhavinsk,92,KZ,1578004224,95,51.1,66.31,21.02,12.17
412,Komsomolskiy,99,RU,1578004225,95,67.55,63.78,2.82,11.48
413,Monterrey,75,MX,1578004051,33,25.67,-100.32,75.2,26.73
414,Balakhninskiy,100,RU,1578004225,97,58.01,114.28,1.85,1.25
415,Beberibe,40,BR,1578004225,83,-4.18,-38.13,86.0,5.82
416,Jian,100,IN,1578004226,82,25.65,87.89,62.13,6.8
417,Codrington,37,AU,1578004226,61,-28.95,153.24,80.6,3.36
418,Hovd,75,NO,1578004226,88,63.83,10.7,50.0,20.8
419,Gat,97,SN,1578004227,31,14.69,-16.54,75.2,12.77
420,Isangel,18,VU,1578004227,58,-19.55,169.27,82.4,4.7
421,Fot,99,FR,1578004227,87,45.58,1.02,45.0,11.41
422,Niagara Falls,75,CA,1578003932,69,43.1,-79.12,46.0,19.46
423,Mpanda,100,BI,1578004228,91,-3.17,29.4,58.73,2.59
424,Belmonte,98,PT,1578003946,89,40.36,-7.35,45.0,3.31
425,Aripuana,98,BR,1578004228,98,-9.17,-60.63,72.41,0.78
426,Broome,100,GB,1578004228,81,52.47,1.45,51.01,13.87
427,Nelson Bay,90,AU,1578004229,83,-32.72,152.14,80.01,4.7
428,Trofors,75,NO,1578004229,81,65.54,13.39,44.6,25.28
429,Doha,84,QA,1578003937,78,25.29,51.53,71.6,6.93
430,Matagami,0,NG,1578004230,26,9.67,8.4,57.2,5.82
431,Muroto,20,JP,1578004230,68,33.37,134.14,33.8,8.05
432,Port Moresby,75,PG,1578004230,100,-9.47,147.16,77.0,5.82
433,San Matias,100,BO,1578004230,83,-16.36,-58.4,78.6,7.11
434,Port Hueneme,1,US,1578004231,68,34.15,-119.2,71.01,5.82
435,Ous,0,RU,1578004231,90,60.91,61.52,-1.68,5.19
436,Moree,83,AU,1578004231,51,-29.46,149.84,80.6,18.34
437,Mount Isa,89,AU,1578004232,43,-20.73,139.49,87.8,8.05
438,Laon,90,FR,1578004232,93,49.56,3.62,46.4,10.29
439,Puerto del Rosario,100,ES,1578004220,48,28.5,-13.86,64.4,17.22
440,Hami,0,CN,1578004232,60,42.84,93.51,16.14,1.97
441,Bowen,90,AU,1578004233,88,-20.01,148.25,79.0,3.36
442,Biak,100,ID,1578004233,70,-0.91,122.88,82.18,4.03
443,Coihaique,20,CL,1578004234,47,-45.58,-72.07,75.2,8.05
444,Tefe,20,BR,1578004234,62,-3.35,-64.71,87.8,3.36
445,Mana,0,NG,1578004234,21,13.03,5.27,55.51,16.84
446,Ulladulla,58,AU,1578004234,78,-35.36,150.48,72.0,10.29
447,Tautira,75,PF,1578004235,66,-17.73,-149.15,87.8,10.29
448,Lebanon,75,US,1578004235,64,40.34,-76.42,45.0,3.47
449,Porto Novo,75,BR,1578004235,94,-23.68,-45.44,69.8,1.12
450,Khandbari,100,NP,1578004235,59,27.38,87.21,34.61,4.74
451,Sterlibashevo,0,RU,1578004236,91,53.44,55.26,1.76,2.93
452,Padang,85,ID,1578004236,90,-0.92,100.36,70.05,4.16
453,Churapcha,51,RU,1578004236,99,62.0,132.43,-36.17,2.64
454,Port Hedland,96,AU,1578004236,78,-20.31,118.58,80.6,5.82
455,Dunda,100,IN,1578004237,67,30.62,78.32,36.59,5.12
456,Najran,0,SA,1578004237,48,17.54,44.22,66.2,4.7
457,Manavalakurichi,20,IN,1578004237,88,8.13,77.3,78.8,4.7
458,Tongren,100,CN,1578004237,87,27.72,109.18,37.54,4.29
459,Iquitos,75,PE,1578004232,88,-3.75,-73.25,80.6,2.24
460,Galiakot,69,IN,1578004238,89,23.54,74.01,55.54,8.08
461,Banjar,98,ID,1578004238,88,-7.37,108.54,77.47,1.39
462,Ouegoa,82,NC,1578004238,66,-20.34,164.44,76.53,4.14
463,Ilesha,0,NG,1578004239,25,7.14,5.26,70.47,4.79
464,Wajima,86,JP,1578004239,74,37.4,136.9,45.52,11.01
465,Yerbogachen,100,RU,1578004239,95,61.28,108.01,10.24,6.53
466,Regente Feijo,40,BR,1578004239,43,-22.22,-51.3,87.8,11.41
467,Barreiras,100,BR,1578004239,99,-12.14,-45.0,70.68,3.13
468,Impfondo,94,CD,1578004240,40,1.62,18.06,74.61,1.21
469,Farafangana,22,MG,1578004240,73,-22.82,47.83,80.28,5.66
470,Atasu,100,KZ,1578004240,95,48.68,71.64,26.29,11.12
471,Narsaq,100,GL,1578004241,61,60.91,-46.05,15.8,3.36
472,Provideniya,0,RU,1578004241,72,64.42,-173.23,-11.69,8.99
473,Sao Jose da Coroa Grande,72,BR,1578004241,83,-8.9,-35.15,80.31,14.7
474,Walvis Bay,21,NA,1578004241,77,-22.95,14.51,64.4,4.7
475,Buala,36,SB,1578004242,63,-8.15,159.59,86.34,4.81
476,Armeria,75,MX,1578004242,73,18.93,-103.97,86.0,2.59
477,Sabang,90,PH,1578004242,77,13.8,121.11,79.0,11.99
478,Baruun-Urt,0,MN,1578004242,81,46.68,113.28,3.6,8.68
479,Ust-Nera,98,RU,1578004243,99,64.57,143.24,-10.14,2.89
480,Salinopolis,100,BR,1578004243,81,-0.61,-47.36,81.39,15.19
481,Carmarthen,100,GB,1578004243,97,51.86,-4.31,51.01,8.99
482,Lima,75,PE,1578004230,73,-12.06,-77.04,75.2,14.99
483,Rosetta,40,EG,1578004244,71,31.4,30.42,53.6,9.17
484,Chai Badan,7,TH,1578004244,62,15.2,101.13,78.01,6.64
485,Severo-Kurilsk,47,RU,1578004245,89,50.68,156.12,19.06,4.99
486,Phek,87,IN,1578004245,96,25.7,94.46,46.81,1.01
487,Merauke,100,ID,1578004245,55,-8.49,140.4,87.69,5.53
488,Chumikan,96,RU,1578004245,79,54.72,135.31,-9.81,13.53
489,Sargatskoye,100,RU,1578004246,95,55.6,73.49,28.9,9.93
490,Mezen,100,RU,1578004246,97,65.85,44.24,32.34,16.28
491,Klaksvik,60,FO,1578004246,74,62.23,-6.59,33.8,31.09
492,Alyangula,24,AU,1578004246,70,-13.85,136.42,86.0,11.41
493,Makiyivka,100,UA,1578004247,77,48.05,37.93,30.88,8.03
494,Makakilo City,90,US,1578004247,88,21.35,-158.09,80.6,10.29
495,Valleyview,82,CA,1578004247,70,55.07,-117.28,20.01,10.85
496,Olinda,7,AU,1578004248,63,-37.84,145.39,68.0,6.93
497,Jaranwala,34,PK,1578004248,42,31.33,73.42,47.89,3.98
498,Neustadt,90,CH,1578004166,67,47.05,8.31,36.0,4.7
499,Buraydah,77,SA,1578004248,66,26.33,43.97,55.4,3.36
500,Marawi,100,PH,1578004247,87,8.0,124.29,73.99,5.01
501,Bukama,100,CD,1578004249,96,-9.2,25.85,71.28,0.85
502,Barreirinhas,100,BR,1578004249,92,-2.75,-42.83,75.51,4.03
503,Souillac,90,FR,1578004249,93,45.6,-0.6,44.6,8.05
504,Westport,1,US,1578004249,65,41.14,-73.36,46.4,8.05
505,Mahates,20,CO,1578004250,70,10.23,-75.19,84.2,10.29
506,Villa Bruzual,64,VE,1578004250,60,9.33,-69.12,77.67,4.27
507,Varhaug,75,NO,1578004250,100,58.61,5.65,46.99,19.46
508,Bhagwantnagar,75,IN,1578004250,93,26.23,80.75,57.2,4.5
509,Bathsheba,40,BB,1578004251,69,13.22,-59.52,80.6,10.29
510,Zaigrayevo,98,RU,1578004251,75,51.83,108.27,-13.0,4.47
511,Fuling,100,CN,1578004251,75,29.71,107.39,45.37,0.81
512,Flin Flon,90,CA,1578004216,92,54.77,-101.88,17.6,4.7
513,Mildura,24,AU,1578004252,21,-34.18,142.16,87.01,6.93
514,Santa Cruz de la Palma,83,ES,1578004252,55,28.68,-17.76,62.6,9.17
515,Yulara,90,AU,1578004252,31,-25.24,130.99,89.6,9.17
516,Seoul,1,KR,1578004023,92,37.57,126.98,28.4,2.04
517,Nome,90,US,1578004253,94,30.04,-94.42,69.8,5.82
518,Saint Simons,40,US,1578004253,59,31.14,-81.39,66.2,6.93
519,Saint-Pierre,90,FR,1578004254,100,48.95,4.24,46.4,12.75
520,Havelock,90,US,1578004254,50,34.88,-76.9,57.2,8.05
521,Gotemba,1,JP,1578004254,49,35.3,138.88,41.0,6.93
522,Mbigou,100,GA,1578004254,98,-1.9,11.91,68.16,3.29
523,Huarmey,58,PE,1578004254,77,-10.07,-78.15,68.77,5.08
524,Novoomskiy,75,RU,1578004255,94,54.84,73.3,33.8,15.66
525,Nakhon Si Thammarat,68,TH,1578004255,88,8.43,99.96,75.67,3.98
526,Kehl,47,DE,1578004255,80,48.57,7.82,36.0,4.7
527,Carmen,90,PH,1578004255,100,7.36,125.71,75.2,2.24
528,Morondava,94,MG,1578004256,94,-20.3,44.28,74.35,3.2
529,Lompoc,1,US,1578004256,58,34.64,-120.46,71.6,6.93
530,Kangaba,68,ML,1578004256,16,11.94,-8.41,65.98,7.14
531,Tengushevo,100,RU,1578004256,98,54.77,42.72,33.28,5.64
532,Kamyshevatskaya,99,RU,1578004257,72,46.41,37.96,34.97,8.66
533,Smithers,75,CA,1578004257,79,54.78,-127.17,21.2,3.36
534,Mae Ramat,0,TH,1578004257,88,16.98,98.52,63.68,1.32
535,Roswell,90,US,1578004158,40,33.39,-104.52,55.99,23.04
536,Paka,100,CF,1578004258,30,4.15,15.03,66.33,2.19
537,Kaupanger,100,NO,1578004259,97,61.18,7.24,32.34,17.65
538,Kimbe,0,PG,1578004259,58,-5.56,150.15,89.87,1.83
539,Vila,86,IT,1578004259,74,45.18,8.4,41.0,1.12
540,Novikovo,99,RU,1578004260,96,51.15,37.89,29.34,7.9
541,Porbandar,45,IN,1578004260,67,21.64,69.61,69.42,17.6
